{
  "generated_at": "2026-05-13",
  "total_schools": 113,
  "safety_grades": [
    {
      "school_name": "하랑숲유치원",
      "lat": 37.4960177,
      "lng": 126.9818135,
      "crosswalk_count": 15,
      "signal_ratio": 0.53,
      "avg_lanes": 2.8,
      "min_distance": 124.5,
      "safety_score": 148.2,
      "safety_grade": "A"
    },
    {
      "school_name": "행복한숲유치원",
      "lat": 37.5071676,
      "lng": 126.9497743,
      "crosswalk_count": 33,
      "signal_ratio": 0.33,
      "avg_lanes": 1.7,
      "min_distance": 55.4,
      "safety_score": 332.5,
      "safety_grade": "A"
    },
    {
      "school_name": "상아유치원",
      "lat": 37.4984871,
      "lng": 126.9443163,
      "crosswalk_count": 20,
      "signal_ratio": 0.45,
      "avg_lanes": 2.4,
      "min_distance": 29.5,
      "safety_score": 206.5,
      "safety_grade": "A"
    },
    {
      "school_name": "수도여자고등학교부설방송통신고등학교",
      "lat": 37.493049,
      "lng": 126.9155624,
      "crosswalk_count": 9,
      "signal_ratio": 0.0,
      "avg_lanes": 2.2,
      "min_distance": 64.0,
      "safety_score": 79.9,
      "safety_grade": "A"
    },
    {
      "school_name": "숭의여자중학교",
      "lat": 37.5074896,
      "lng": 126.9290766,
      "crosswalk_count": 13,
      "signal_ratio": 0.31,
      "avg_lanes": 1.9,
      "min_distance": 20.3,
      "safety_score": 134.4,
      "safety_grade": "A"
    },
    {
      "school_name": "경문고등학교",
      "lat": 37.4930843,
      "lng": 126.9817084,
      "crosswalk_count": 23,
      "signal_ratio": 0.39,
      "avg_lanes": 2.6,
      "min_distance": 62.2,
      "safety_score": 230.8,
      "safety_grade": "A"
    },
    {
      "school_name": "서울남사초등학교",
      "lat": 37.4823432,
      "lng": 126.9788623,
      "crosswalk_count": 27,
      "signal_ratio": 0.3,
      "avg_lanes": 2.1,
      "min_distance": 82.0,
      "safety_score": 267.5,
      "safety_grade": "A"
    },
    {
      "school_name": "서울동작초등학교",
      "lat": 37.4940445,
      "lng": 126.9770106,
      "crosswalk_count": 8,
      "signal_ratio": 0.0,
      "avg_lanes": 1.4,
      "min_distance": 127.8,
      "safety_score": 66.1,
      "safety_grade": "A"
    },
    {
      "school_name": "예림유치원",
      "lat": 37.5069023,
      "lng": 126.969582,
      "crosswalk_count": 15,
      "signal_ratio": 0.33,
      "avg_lanes": 2.6,
      "min_distance": 58.8,
      "safety_score": 149.3,
      "safety_grade": "A"
    },
    {
      "school_name": "서울신상도초등학교",
      "lat": 37.499913,
      "lng": 126.943221,
      "crosswalk_count": 33,
      "signal_ratio": 0.45,
      "avg_lanes": 2.5,
      "min_distance": 45.3,
      "safety_score": 334.7,
      "safety_grade": "A"
    },
    {
      "school_name": "서울흑석초등학교",
      "lat": 37.5086077,
      "lng": 126.9651514,
      "crosswalk_count": 22,
      "signal_ratio": 0.32,
      "avg_lanes": 2.4,
      "min_distance": 35.1,
      "safety_score": 221.9,
      "safety_grade": "A"
    },
    {
      "school_name": "동아유치원",
      "lat": 37.5082504,
      "lng": 126.9433247,
      "crosswalk_count": 30,
      "signal_ratio": 0.07,
      "avg_lanes": 1.7,
      "min_distance": 0.9,
      "safety_score": 299.8,
      "safety_grade": "A"
    },
    {
      "school_name": "송림유치원",
      "lat": 37.4890555,
      "lng": 126.9634623,
      "crosswalk_count": 16,
      "signal_ratio": 0.0,
      "avg_lanes": 1.6,
      "min_distance": 25.6,
      "safety_score": 155.6,
      "safety_grade": "A"
    },
    {
      "school_name": "남성중학교",
      "lat": 37.4788335,
      "lng": 126.9723805,
      "crosswalk_count": 2,
      "signal_ratio": 0.5,
      "avg_lanes": 5.0,
      "min_distance": 129.8,
      "safety_score": 10.0,
      "safety_grade": "D"
    },
    {
      "school_name": "대방중학교",
      "lat": 37.4951537,
      "lng": 126.9137646,
      "crosswalk_count": 25,
      "signal_ratio": 0.24,
      "avg_lanes": 2.6,
      "min_distance": 73.1,
      "safety_score": 245.2,
      "safety_grade": "A"
    },
    {
      "school_name": "열림유치원",
      "lat": 37.5089594,
      "lng": 126.9292272,
      "crosswalk_count": 18,
      "signal_ratio": 0.33,
      "avg_lanes": 1.8,
      "min_distance": 0.8,
      "safety_score": 187.6,
      "safety_grade": "A"
    },
    {
      "school_name": "정현유치원",
      "lat": 37.4947412,
      "lng": 126.9225483,
      "crosswalk_count": 8,
      "signal_ratio": 0.5,
      "avg_lanes": 2.9,
      "min_distance": 242.8,
      "safety_score": 65.1,
      "safety_grade": "A"
    },
    {
      "school_name": "총신대부속유치원",
      "lat": 37.4891828,
      "lng": 126.9666401,
      "crosswalk_count": 19,
      "signal_ratio": 0.05,
      "avg_lanes": 1.7,
      "min_distance": 139.8,
      "safety_score": 175.5,
      "safety_grade": "A"
    },
    {
      "school_name": "서울은로초등학교",
      "lat": 37.50336,
      "lng": 126.9600697,
      "crosswalk_count": 15,
      "signal_ratio": 0.6,
      "avg_lanes": 2.2,
      "min_distance": 24.3,
      "safety_score": 162.0,
      "safety_grade": "A"
    },
    {
      "school_name": "노들유치원",
      "lat": 37.5124484,
      "lng": 126.9536572,
      "crosswalk_count": 27,
      "signal_ratio": 0.37,
      "avg_lanes": 1.7,
      "min_distance": 5.4,
      "safety_score": 278.5,
      "safety_grade": "A"
    },
    {
      "school_name": "노량진교회유치원",
      "lat": 37.5121163,
      "lng": 126.9559886,
      "crosswalk_count": 8,
      "signal_ratio": 0.25,
      "avg_lanes": 1.5,
      "min_distance": 110.7,
      "safety_score": 74.9,
      "safety_grade": "A"
    },
    {
      "school_name": "문창중학교",
      "lat": 37.4958027,
      "lng": 126.9217952,
      "crosswalk_count": 17,
      "signal_ratio": 0.06,
      "avg_lanes": 1.7,
      "min_distance": 203.4,
      "safety_score": 149.3,
      "safety_grade": "A"
    },
    {
      "school_name": "서울공업고등학교",
      "lat": 37.5013784,
      "lng": 126.9226274,
      "crosswalk_count": 35,
      "signal_ratio": 0.37,
      "avg_lanes": 2.1,
      "min_distance": 62.6,
      "safety_score": 351.4,
      "safety_grade": "A"
    },
    {
      "school_name": "중앙대학교사범대학부속초등학교",
      "lat": 37.50544,
      "lng": 126.9599814,
      "crosswalk_count": 40,
      "signal_ratio": 0.45,
      "avg_lanes": 2.0,
      "min_distance": 26.8,
      "safety_score": 407.7,
      "safety_grade": "A"
    },
    {
      "school_name": "상도제일유치원",
      "lat": 37.4991471,
      "lng": 126.9535815,
      "crosswalk_count": 25,
      "signal_ratio": 0.44,
      "avg_lanes": 3.4,
      "min_distance": 103.4,
      "safety_score": 245.7,
      "safety_grade": "A"
    },
    {
      "school_name": "서울신남성초등학교병설유치원",
      "lat": 37.4885464,
      "lng": 126.9652863,
      "crosswalk_count": 19,
      "signal_ratio": 0.05,
      "avg_lanes": 1.8,
      "min_distance": 57.2,
      "safety_score": 183.5,
      "safety_grade": "A"
    },
    {
      "school_name": "동양중학교",
      "lat": 37.5098245,
      "lng": 126.9573429,
      "crosswalk_count": 14,
      "signal_ratio": 0.29,
      "avg_lanes": 2.7,
      "min_distance": 153.2,
      "safety_score": 128.1,
      "safety_grade": "A"
    },
    {
      "school_name": "성남고등학교",
      "lat": 37.5046878,
      "lng": 126.9269648,
      "crosswalk_count": 27,
      "signal_ratio": 0.0,
      "avg_lanes": 1.3,
      "min_distance": 72.9,
      "safety_score": 261.8,
      "safety_grade": "A"
    },
    {
      "school_name": "엘림숲유치원",
      "lat": 37.4984229,
      "lng": 126.9315728,
      "crosswalk_count": 16,
      "signal_ratio": 0.31,
      "avg_lanes": 2.2,
      "min_distance": 15.2,
      "safety_score": 164.1,
      "safety_grade": "A"
    },
    {
      "school_name": "장승중학교",
      "lat": 37.5033456,
      "lng": 126.9406567,
      "crosswalk_count": 32,
      "signal_ratio": 0.38,
      "avg_lanes": 2.4,
      "min_distance": 86.8,
      "safety_score": 318.4,
      "safety_grade": "A"
    },
    {
      "school_name": "학력인정 신동신중.정보산업고등학교",
      "lat": 37.4907266,
      "lng": 126.9778705,
      "crosswalk_count": 18,
      "signal_ratio": 0.0,
      "avg_lanes": 1.7,
      "min_distance": 72.7,
      "safety_score": 170.7,
      "safety_grade": "A"
    },
    {
      "school_name": "서울남성초등학교",
      "lat": 37.4845922,
      "lng": 126.9757041,
      "crosswalk_count": 24,
      "signal_ratio": 0.42,
      "avg_lanes": 2.4,
      "min_distance": 109.3,
      "safety_score": 237.4,
      "safety_grade": "A"
    },
    {
      "school_name": "메이플유치원",
      "lat": 37.4922665,
      "lng": 126.9116072,
      "crosswalk_count": 7,
      "signal_ratio": 0.14,
      "avg_lanes": 4.0,
      "min_distance": 128.6,
      "safety_score": 52.4,
      "safety_grade": "A"
    },
    {
      "school_name": "무지개유치원",
      "lat": 37.4935291,
      "lng": 126.9574313,
      "crosswalk_count": 22,
      "signal_ratio": 0.27,
      "avg_lanes": 2.4,
      "min_distance": 42.3,
      "safety_score": 219.9,
      "safety_grade": "A"
    },
    {
      "school_name": "강남중학교",
      "lat": 37.5025027,
      "lng": 126.9224335,
      "crosswalk_count": 28,
      "signal_ratio": 0.21,
      "avg_lanes": 1.8,
      "min_distance": 67.2,
      "safety_score": 277.5,
      "safety_grade": "A"
    },
    {
      "school_name": "양문유치원",
      "lat": 37.4892091,
      "lng": 126.907342,
      "crosswalk_count": 20,
      "signal_ratio": 0.3,
      "avg_lanes": 4.2,
      "min_distance": 52.1,
      "safety_score": 194.0,
      "safety_grade": "A"
    },
    {
      "school_name": "상도여자중학교",
      "lat": 37.4991471,
      "lng": 126.9535815,
      "crosswalk_count": 25,
      "signal_ratio": 0.44,
      "avg_lanes": 3.4,
      "min_distance": 103.4,
      "safety_score": 245.7,
      "safety_grade": "A"
    },
    {
      "school_name": "강남유치원",
      "lat": 37.5035045,
      "lng": 126.9496358,
      "crosswalk_count": 33,
      "signal_ratio": 0.3,
      "avg_lanes": 2.1,
      "min_distance": 44.5,
      "safety_score": 331.5,
      "safety_grade": "A"
    },
    {
      "school_name": "남현유치원",
      "lat": 37.5032626,
      "lng": 126.9506566,
      "crosswalk_count": 33,
      "signal_ratio": 0.33,
      "avg_lanes": 2.1,
      "min_distance": 118.8,
      "safety_score": 324.8,
      "safety_grade": "A"
    },
    {
      "school_name": "동그라미유치원",
      "lat": 37.481584,
      "lng": 126.9793751,
      "crosswalk_count": 20,
      "signal_ratio": 0.45,
      "avg_lanes": 2.4,
      "min_distance": 8.2,
      "safety_score": 208.3,
      "safety_grade": "A"
    },
    {
      "school_name": "벧엘유치원",
      "lat": 37.5089846,
      "lng": 126.9426059,
      "crosswalk_count": 14,
      "signal_ratio": 0.21,
      "avg_lanes": 1.9,
      "min_distance": 104.0,
      "safety_score": 133.5,
      "safety_grade": "A"
    },
    {
      "school_name": "소망유치원",
      "lat": 37.5078681,
      "lng": 126.9669348,
      "crosswalk_count": 16,
      "signal_ratio": 0.31,
      "avg_lanes": 2.5,
      "min_distance": 62.4,
      "safety_score": 158.6,
      "safety_grade": "A"
    },
    {
      "school_name": "동작중학교",
      "lat": 37.4950212,
      "lng": 126.9772726,
      "crosswalk_count": 6,
      "signal_ratio": 0.0,
      "avg_lanes": 1.5,
      "min_distance": 67.7,
      "safety_score": 51.7,
      "safety_grade": "A"
    },
    {
      "school_name": "서울은로유치원",
      "lat": 37.50336,
      "lng": 126.9600697,
      "crosswalk_count": 15,
      "signal_ratio": 0.6,
      "avg_lanes": 2.2,
      "min_distance": 24.3,
      "safety_score": 162.0,
      "safety_grade": "A"
    },
    {
      "school_name": "숭의여자고등학교",
      "lat": 37.5074896,
      "lng": 126.9290766,
      "crosswalk_count": 13,
      "signal_ratio": 0.31,
      "avg_lanes": 1.9,
      "min_distance": 20.3,
      "safety_score": 134.4,
      "safety_grade": "A"
    },
    {
      "school_name": "영등포고등학교",
      "lat": 37.5082263,
      "lng": 126.9336415,
      "crosswalk_count": 19,
      "signal_ratio": 0.21,
      "avg_lanes": 1.5,
      "min_distance": 111.4,
      "safety_score": 183.6,
      "safety_grade": "A"
    },
    {
      "school_name": "서울신남성초등학교",
      "lat": 37.4885464,
      "lng": 126.9652863,
      "crosswalk_count": 19,
      "signal_ratio": 0.05,
      "avg_lanes": 1.8,
      "min_distance": 57.2,
      "safety_score": 183.5,
      "safety_grade": "A"
    },
    {
      "school_name": "서울영본초등학교",
      "lat": 37.5105459,
      "lng": 126.9487309,
      "crosswalk_count": 22,
      "signal_ratio": 0.14,
      "avg_lanes": 1.7,
      "min_distance": 88.8,
      "safety_score": 213.2,
      "safety_grade": "A"
    },
    {
      "school_name": "에덴유치원",
      "lat": 37.4987343,
      "lng": 126.9440592,
      "crosswalk_count": 21,
      "signal_ratio": 0.48,
      "avg_lanes": 2.4,
      "min_distance": 26.5,
      "safety_score": 217.4,
      "safety_grade": "A"
    },
    {
      "school_name": "영화유치원",
      "lat": 37.5109903,
      "lng": 126.9280778,
      "crosswalk_count": 29,
      "signal_ratio": 0.31,
      "avg_lanes": 2.1,
      "min_distance": 38.8,
      "safety_score": 292.0,
      "safety_grade": "A"
    },
    {
      "school_name": "요요유치원",
      "lat": 37.494565,
      "lng": 126.9122485,
      "crosswalk_count": 22,
      "signal_ratio": 0.27,
      "avg_lanes": 2.7,
      "min_distance": 92.9,
      "safety_score": 213.8,
      "safety_grade": "A"
    },
    {
      "school_name": "태성유치원",
      "lat": 37.495841,
      "lng": 126.9172064,
      "crosswalk_count": 23,
      "signal_ratio": 0.35,
      "avg_lanes": 2.6,
      "min_distance": 44.3,
      "safety_score": 231.3,
      "safety_grade": "A"
    },
    {
      "school_name": "한가람유치원",
      "lat": 37.5051677,
      "lng": 126.969059,
      "crosswalk_count": 14,
      "signal_ratio": 0.29,
      "avg_lanes": 2.6,
      "min_distance": 74.4,
      "safety_score": 136.4,
      "safety_grade": "A"
    },
    {
      "school_name": "서울보라매초등학교",
      "lat": 37.4957207,
      "lng": 126.9161111,
      "crosswalk_count": 25,
      "signal_ratio": 0.36,
      "avg_lanes": 2.5,
      "min_distance": 79.4,
      "safety_score": 248.4,
      "safety_grade": "A"
    },
    {
      "school_name": "사랑유치원",
      "lat": 37.4983962,
      "lng": 126.9211957,
      "crosswalk_count": 37,
      "signal_ratio": 0.22,
      "avg_lanes": 2.1,
      "min_distance": 20.4,
      "safety_score": 371.1,
      "safety_grade": "A"
    },
    {
      "school_name": "새열림유치원",
      "lat": 37.5060736,
      "lng": 126.9281015,
      "crosswalk_count": 12,
      "signal_ratio": 0.17,
      "avg_lanes": 2.0,
      "min_distance": 157.9,
      "safety_score": 106.2,
      "safety_grade": "A"
    },
    {
      "school_name": "학력인정 신동신중학교(2년제)",
      "lat": 37.4907266,
      "lng": 126.9778705,
      "crosswalk_count": 18,
      "signal_ratio": 0.0,
      "avg_lanes": 1.7,
      "min_distance": 72.7,
      "safety_score": 170.7,
      "safety_grade": "A"
    },
    {
      "school_name": "학력인정 신동신정보산업고등학교(2년제)",
      "lat": 37.4907266,
      "lng": 126.9778705,
      "crosswalk_count": 18,
      "signal_ratio": 0.0,
      "avg_lanes": 1.7,
      "min_distance": 72.7,
      "safety_score": 170.7,
      "safety_grade": "A"
    },
    {
      "school_name": "서울삼일초등학교",
      "lat": 37.488464,
      "lng": 126.975284,
      "crosswalk_count": 34,
      "signal_ratio": 0.29,
      "avg_lanes": 2.4,
      "min_distance": 24.3,
      "safety_score": 342.2,
      "safety_grade": "A"
    },
    {
      "school_name": "서울공업고등학교부설미래기술교육센터",
      "lat": 37.5013784,
      "lng": 126.9226274,
      "crosswalk_count": 35,
      "signal_ratio": 0.37,
      "avg_lanes": 2.1,
      "min_distance": 62.6,
      "safety_score": 351.4,
      "safety_grade": "A"
    },
    {
      "school_name": "서울상현초등학교",
      "lat": 37.4949395,
      "lng": 126.9526964,
      "crosswalk_count": 25,
      "signal_ratio": 0.2,
      "avg_lanes": 2.6,
      "min_distance": 7.6,
      "safety_score": 250.3,
      "safety_grade": "A"
    },
    {
      "school_name": "행복유치원",
      "lat": 37.4956669,
      "lng": 126.9411522,
      "crosswalk_count": 8,
      "signal_ratio": 0.62,
      "avg_lanes": 2.5,
      "min_distance": 129.1,
      "safety_score": 81.3,
      "safety_grade": "A"
    },
    {
      "school_name": "서울문창초등학교병설유치원",
      "lat": 37.4889443,
      "lng": 126.9138717,
      "crosswalk_count": 5,
      "signal_ratio": 0.6,
      "avg_lanes": 2.8,
      "min_distance": 167.6,
      "safety_score": 45.8,
      "safety_grade": "A"
    },
    {
      "school_name": "서울남성초등학교병설유치원",
      "lat": 37.4845922,
      "lng": 126.9757041,
      "crosswalk_count": 24,
      "signal_ratio": 0.42,
      "avg_lanes": 2.4,
      "min_distance": 109.3,
      "safety_score": 237.4,
      "safety_grade": "A"
    },
    {
      "school_name": "서울상도유치원",
      "lat": 37.5082504,
      "lng": 126.9433247,
      "crosswalk_count": 30,
      "signal_ratio": 0.07,
      "avg_lanes": 1.7,
      "min_distance": 0.9,
      "safety_score": 299.8,
      "safety_grade": "A"
    },
    {
      "school_name": "수도여자고등학교",
      "lat": 37.493049,
      "lng": 126.9155624,
      "crosswalk_count": 9,
      "signal_ratio": 0.0,
      "avg_lanes": 2.2,
      "min_distance": 64.0,
      "safety_score": 79.9,
      "safety_grade": "A"
    },
    {
      "school_name": "서울대림초등학교",
      "lat": 37.5006252,
      "lng": 126.9256931,
      "crosswalk_count": 59,
      "signal_ratio": 0.24,
      "avg_lanes": 1.7,
      "min_distance": 57.2,
      "safety_score": 589.4,
      "safety_grade": "A"
    },
    {
      "school_name": "서울상도초등학교",
      "lat": 37.499852,
      "lng": 126.9373202,
      "crosswalk_count": 1,
      "signal_ratio": 0.0,
      "avg_lanes": 1.0,
      "min_distance": 139.8,
      "safety_score": -4.0,
      "safety_grade": "F"
    },
    {
      "school_name": "서울영화초등학교",
      "lat": 37.5095162,
      "lng": 126.9330178,
      "crosswalk_count": 13,
      "signal_ratio": 0.38,
      "avg_lanes": 1.7,
      "min_distance": 83.0,
      "safety_score": 131.2,
      "safety_grade": "A"
    },
    {
      "school_name": "서울신길초등학교",
      "lat": 37.5104253,
      "lng": 126.9266963,
      "crosswalk_count": 32,
      "signal_ratio": 0.31,
      "avg_lanes": 2.1,
      "min_distance": 49.7,
      "safety_score": 321.1,
      "safety_grade": "A"
    },
    {
      "school_name": "서울은로초등학교병설유치원",
      "lat": 37.50336,
      "lng": 126.9600697,
      "crosswalk_count": 15,
      "signal_ratio": 0.6,
      "avg_lanes": 2.2,
      "min_distance": 24.3,
      "safety_score": 162.0,
      "safety_grade": "A"
    },
    {
      "school_name": "성모유치원",
      "lat": 37.501582,
      "lng": 126.9399656,
      "crosswalk_count": 10,
      "signal_ratio": 0.6,
      "avg_lanes": 2.8,
      "min_distance": 100.6,
      "safety_score": 102.5,
      "safety_grade": "A"
    },
    {
      "school_name": "세나유치원",
      "lat": 37.4987343,
      "lng": 126.9440592,
      "crosswalk_count": 21,
      "signal_ratio": 0.48,
      "avg_lanes": 2.4,
      "min_distance": 26.5,
      "safety_score": 217.4,
      "safety_grade": "A"
    },
    {
      "school_name": "승혜유치원",
      "lat": 37.4987272,
      "lng": 126.937091,
      "crosswalk_count": 1,
      "signal_ratio": 0.0,
      "avg_lanes": 1.0,
      "min_distance": 263.4,
      "safety_score": -16.3,
      "safety_grade": "F"
    },
    {
      "school_name": "사당중학교",
      "lat": 37.4875272,
      "lng": 126.9690138,
      "crosswalk_count": 19,
      "signal_ratio": 0.21,
      "avg_lanes": 2.1,
      "min_distance": 106.2,
      "safety_score": 182.5,
      "safety_grade": "A"
    },
    {
      "school_name": "장아유치원",
      "lat": 37.5096287,
      "lng": 126.9478043,
      "crosswalk_count": 27,
      "signal_ratio": 0.22,
      "avg_lanes": 1.7,
      "min_distance": 111.8,
      "safety_score": 263.4,
      "safety_grade": "A"
    },
    {
      "school_name": "중앙대부속유치원",
      "lat": 37.5085657,
      "lng": 126.9562676,
      "crosswalk_count": 12,
      "signal_ratio": 0.08,
      "avg_lanes": 1.5,
      "min_distance": 146.9,
      "safety_score": 106.3,
      "safety_grade": "A"
    },
    {
      "school_name": "동작고등학교",
      "lat": 37.4823814,
      "lng": 126.9654343,
      "crosswalk_count": 13,
      "signal_ratio": 0.23,
      "avg_lanes": 1.3,
      "min_distance": 39.3,
      "safety_score": 132.1,
      "safety_grade": "A"
    },
    {
      "school_name": "서울문창초등학교",
      "lat": 37.4889443,
      "lng": 126.9138717,
      "crosswalk_count": 5,
      "signal_ratio": 0.6,
      "avg_lanes": 2.8,
      "min_distance": 167.6,
      "safety_score": 45.8,
      "safety_grade": "A"
    },
    {
      "school_name": "서울행림초등학교",
      "lat": 37.4824861,
      "lng": 126.964472,
      "crosswalk_count": 11,
      "signal_ratio": 0.18,
      "avg_lanes": 1.3,
      "min_distance": 55.7,
      "safety_score": 109.1,
      "safety_grade": "A"
    },
    {
      "school_name": "강현중학교",
      "lat": 37.5031123,
      "lng": 126.9311045,
      "crosswalk_count": 7,
      "signal_ratio": 0.14,
      "avg_lanes": 1.9,
      "min_distance": 79.0,
      "safety_score": 63.8,
      "safety_grade": "A"
    },
    {
      "school_name": "국사봉중학교",
      "lat": 37.4937679,
      "lng": 126.9448998,
      "crosswalk_count": 6,
      "signal_ratio": 0.67,
      "avg_lanes": 2.7,
      "min_distance": 78.9,
      "safety_score": 67.1,
      "safety_grade": "A"
    },
    {
      "school_name": "상현중학교",
      "lat": 37.49414,
      "lng": 126.9612892,
      "crosswalk_count": 14,
      "signal_ratio": 0.29,
      "avg_lanes": 2.2,
      "min_distance": 80.1,
      "safety_score": 136.9,
      "safety_grade": "A"
    },
    {
      "school_name": "성남중학교",
      "lat": 37.5046878,
      "lng": 126.9269648,
      "crosswalk_count": 27,
      "signal_ratio": 0.0,
      "avg_lanes": 1.3,
      "min_distance": 72.9,
      "safety_score": 261.8,
      "safety_grade": "A"
    },
    {
      "school_name": "서울노량진초등학교",
      "lat": 37.5119189,
      "lng": 126.9404152,
      "crosswalk_count": 23,
      "signal_ratio": 0.39,
      "avg_lanes": 2.6,
      "min_distance": 35.5,
      "safety_score": 233.4,
      "safety_grade": "A"
    },
    {
      "school_name": "서울본동초등학교",
      "lat": 37.5105672,
      "lng": 126.9540399,
      "crosswalk_count": 14,
      "signal_ratio": 0.07,
      "avg_lanes": 1.6,
      "min_distance": 44.0,
      "safety_score": 136.0,
      "safety_grade": "A"
    },
    {
      "school_name": "상도중학교",
      "lat": 37.490382,
      "lng": 126.961533,
      "crosswalk_count": 15,
      "signal_ratio": 0.0,
      "avg_lanes": 1.7,
      "min_distance": 101.8,
      "safety_score": 137.6,
      "safety_grade": "A"
    },
    {
      "school_name": "영등포중학교",
      "lat": 37.5082263,
      "lng": 126.9336415,
      "crosswalk_count": 19,
      "signal_ratio": 0.21,
      "avg_lanes": 1.5,
      "min_distance": 111.4,
      "safety_score": 183.6,
      "safety_grade": "A"
    },
    {
      "school_name": "중앙대학교사범대학부속중학교",
      "lat": 37.5044905,
      "lng": 126.9614561,
      "crosswalk_count": 25,
      "signal_ratio": 0.52,
      "avg_lanes": 2.2,
      "min_distance": 98.8,
      "safety_score": 252.1,
      "safety_grade": "A"
    },
    {
      "school_name": "서울강남초등학교",
      "lat": 37.5061028,
      "lng": 126.9527814,
      "crosswalk_count": 29,
      "signal_ratio": 0.34,
      "avg_lanes": 1.6,
      "min_distance": 51.3,
      "safety_score": 293.3,
      "safety_grade": "A"
    },
    {
      "school_name": "모아유치원",
      "lat": 37.488347,
      "lng": 126.978993,
      "crosswalk_count": 13,
      "signal_ratio": 0.23,
      "avg_lanes": 1.8,
      "min_distance": 188.0,
      "safety_score": 115.6,
      "safety_grade": "A"
    },
    {
      "school_name": "월광미술학원",
      "lat": 37.4895379,
      "lng": 126.9627851,
      "crosswalk_count": 20,
      "signal_ratio": 0.0,
      "avg_lanes": 1.6,
      "min_distance": 26.7,
      "safety_score": 195.4,
      "safety_grade": "A"
    },
    {
      "school_name": "그림사랑미술학원",
      "lat": 37.4990572,
      "lng": 126.9331683,
      "crosswalk_count": 12,
      "signal_ratio": 0.33,
      "avg_lanes": 2.1,
      "min_distance": 17.7,
      "safety_score": 125.0,
      "safety_grade": "A"
    },
    {
      "school_name": "메가파워예능미술학원",
      "lat": 37.488538,
      "lng": 126.9088198,
      "crosswalk_count": 23,
      "signal_ratio": 0.35,
      "avg_lanes": 3.7,
      "min_distance": 77.5,
      "safety_score": 224.6,
      "safety_grade": "A"
    },
    {
      "school_name": "신그림마당미술학원",
      "lat": 37.5038721,
      "lng": 126.9496753,
      "crosswalk_count": 33,
      "signal_ratio": 0.27,
      "avg_lanes": 1.9,
      "min_distance": 12.0,
      "safety_score": 334.3,
      "safety_grade": "A"
    },
    {
      "school_name": "오오예능미술학원",
      "lat": 37.5004913,
      "lng": 126.9407935,
      "crosswalk_count": 15,
      "signal_ratio": 0.47,
      "avg_lanes": 2.8,
      "min_distance": 49.6,
      "safety_score": 153.6,
      "safety_grade": "A"
    },
    {
      "school_name": "서울강남초등학교병설유치원",
      "lat": 37.5061028,
      "lng": 126.9527814,
      "crosswalk_count": 29,
      "signal_ratio": 0.34,
      "avg_lanes": 1.6,
      "min_distance": 51.3,
      "safety_score": 293.3,
      "safety_grade": "A"
    },
    {
      "school_name": "강남미술학원",
      "lat": 37.497666,
      "lng": 126.9282322,
      "crosswalk_count": 42,
      "signal_ratio": 0.29,
      "avg_lanes": 2.0,
      "min_distance": 41.3,
      "safety_score": 421.4,
      "safety_grade": "A"
    },
    {
      "school_name": "밤비니지니어스 상도미술학원",
      "lat": 37.5012755,
      "lng": 126.9409916,
      "crosswalk_count": 16,
      "signal_ratio": 0.44,
      "avg_lanes": 2.8,
      "min_distance": 26.9,
      "safety_score": 165.2,
      "safety_grade": "A"
    },
    {
      "school_name": "아이미술학원",
      "lat": 37.5001528,
      "lng": 126.9506324,
      "crosswalk_count": 21,
      "signal_ratio": 0.24,
      "avg_lanes": 2.3,
      "min_distance": 3.6,
      "safety_score": 212.8,
      "safety_grade": "A"
    },
    {
      "school_name": "신예본미술학원",
      "lat": 37.4965999,
      "lng": 126.9305697,
      "crosswalk_count": 13,
      "signal_ratio": 0.23,
      "avg_lanes": 1.8,
      "min_distance": 167.7,
      "safety_score": 117.6,
      "safety_grade": "A"
    },
    {
      "school_name": "푸리울미술학원",
      "lat": 37.5060736,
      "lng": 126.9281015,
      "crosswalk_count": 12,
      "signal_ratio": 0.17,
      "avg_lanes": 2.0,
      "min_distance": 157.9,
      "safety_score": 106.2,
      "safety_grade": "A"
    },
    {
      "school_name": "아이사랑미술학원",
      "lat": 37.5064114,
      "lng": 126.9486674,
      "crosswalk_count": 51,
      "signal_ratio": 0.27,
      "avg_lanes": 1.9,
      "min_distance": 83.6,
      "safety_score": 507.2,
      "safety_grade": "A"
    },
    {
      "school_name": "상도유치원",
      "lat": 37.501361,
      "lng": 126.9515019,
      "crosswalk_count": 22,
      "signal_ratio": 0.27,
      "avg_lanes": 2.4,
      "min_distance": 140.9,
      "safety_score": 210.0,
      "safety_grade": "A"
    },
    {
      "school_name": "효성유치원",
      "lat": 37.4987343,
      "lng": 126.9440592,
      "crosswalk_count": 21,
      "signal_ratio": 0.48,
      "avg_lanes": 2.4,
      "min_distance": 26.5,
      "safety_score": 217.4,
      "safety_grade": "A"
    },
    {
      "school_name": "명수유치원",
      "lat": 37.5089347,
      "lng": 126.9603106,
      "crosswalk_count": 51,
      "signal_ratio": 0.39,
      "avg_lanes": 2.4,
      "min_distance": 33.6,
      "safety_score": 514.3,
      "safety_grade": "A"
    },
    {
      "school_name": "영등포고등학교부설방송통신고등학교",
      "lat": 37.5082263,
      "lng": 126.9336415,
      "crosswalk_count": 19,
      "signal_ratio": 0.21,
      "avg_lanes": 1.5,
      "min_distance": 111.4,
      "safety_score": 183.6,
      "safety_grade": "A"
    },
    {
      "school_name": "샛별유치원",
      "lat": 37.4980421,
      "lng": 126.9502645,
      "crosswalk_count": 31,
      "signal_ratio": 0.26,
      "avg_lanes": 2.8,
      "min_distance": 67.4,
      "safety_score": 305.7,
      "safety_grade": "A"
    },
    {
      "school_name": "서울행림초등학교병설유치원",
      "lat": 37.4824861,
      "lng": 126.964472,
      "crosswalk_count": 11,
      "signal_ratio": 0.18,
      "avg_lanes": 1.3,
      "min_distance": 55.7,
      "safety_score": 109.1,
      "safety_grade": "A"
    },
    {
      "school_name": "서울노량진초등학교병설유치원",
      "lat": 37.5119189,
      "lng": 126.9404152,
      "crosswalk_count": 23,
      "signal_ratio": 0.39,
      "avg_lanes": 2.6,
      "min_distance": 35.5,
      "safety_score": 233.4,
      "safety_grade": "A"
    },
    {
      "school_name": "서울본동초등학교병설유치원",
      "lat": 37.5105672,
      "lng": 126.9540399,
      "crosswalk_count": 14,
      "signal_ratio": 0.07,
      "avg_lanes": 1.6,
      "min_distance": 44.0,
      "safety_score": 136.0,
      "safety_grade": "A"
    },
    {
      "school_name": "시현유치원",
      "lat": 37.5096287,
      "lng": 126.9478043,
      "crosswalk_count": 27,
      "signal_ratio": 0.22,
      "avg_lanes": 1.7,
      "min_distance": 111.8,
      "safety_score": 263.4,
      "safety_grade": "A"
    },
    {
      "school_name": "아이사랑유치원",
      "lat": 37.5028314,
      "lng": 126.9425682,
      "crosswalk_count": 43,
      "signal_ratio": 0.23,
      "avg_lanes": 2.2,
      "min_distance": 77.4,
      "safety_score": 425.7,
      "safety_grade": "A"
    }
  ]
}